{
  "type": "FeatureCollection",
  "features": [
    {
      "type": "Feature",
      "geometry": {
        "type": "Point",
        "coordinates": [-5.66152,43.53573 ]
      },
      "properties": {
        "name": "Darío Martínez Bajo"
      }
    },
    {
      "type": "Feature",
      "geometry": {
        "type": "Point",
        "coordinates": [-5.4376300,43.4755500 ]
      },
      "properties": {
        "name": "José Alfredo Martínez Vallín"
      }
    },
    {
      "type": "Feature",
      "geometry": {
        "type": "Point",
        "coordinates": [ -5.4176200,43.4752500 ]
      },
      "properties": {
        "name": "María del Carmen Vallín Devita"
      }
    },
	{
      "type": "Feature",
      "geometry": {
        "type": "Point",
        "coordinates": [ -5.4171300,43.4253500 ]
      },
      "properties": {
        "name": "José Vallín González"
      }
    },
	{
      "type": "Feature",
      "geometry": {
        "type": "Point",
        "coordinates": [ -5.4576300,43.4753500 ]
      },
      "properties": {
        "name": "José Vallín González(Def.)"
      }
    },
	{
      "type": "Feature",
      "geometry": {
        "type": "Point",
        "coordinates": [ 13.33561,38.13205 ]
      },
      "properties": {
        "name": "Ana Devita Rodríguez"
      }
    },
	{
      "type": "Feature",
      "geometry": {
        "type": "Point",
        "coordinates": [ -5.4276300,43.4153500 ]
      },
      "properties": {
        "name": "Ana Devita Rodríguez(Def.)"
      }
    },
	{
      "type": "Feature",
      "geometry": {
        "type": "Point",
        "coordinates": [ -5.4576300,43.4758500 ]
      },
      "properties": {
        "name": "José Alfredo Martínez González"
      }
    },
	{
      "type": "Feature",
      "geometry": {
        "type": "Point",
        "coordinates": [ -5.4976300,43.4754500 ]
      },
      "properties": {
        "name": "Valentina González Rodríguez"
      }
    },
	{
      "type": "Feature",
      "geometry": {
        "type": "Point",
        "coordinates": [ -5.4136300,43.4253500 ]
      },
      "properties": {
        "name": "Valentina González Rodríguez(Def.)"
      }
    },
	{
      "type": "Feature",
      "geometry": {
        "type": "Point",
        "coordinates": [ -5.4176300,43.4753500 ]
      },
      "properties": {
        "name": "Eustaquio Martínez Pérez"
      }
    },
	{
      "type": "Feature",
      "geometry": {
        "type": "Point",
        "coordinates": [-5.4176300,43.4753500 ]
      },
      "properties": {
        "name": "Eustaquio Martínez Pérez(Def.)"
      }
    },
	{
      "type": "Feature",
      "geometry": {
        "type": "Point",
        "coordinates": [-5.6467600, 43.3293200 ]
      },
      "properties": {
        "name": "B.Victoria Bajo Estévez"
      }
    },
	{
      "type": "Feature",
      "geometry": {
        "type": "Point",
        "coordinates": [-5.7445600,41.5063300 ]
      },
      "properties": {
        "name": "Benita Estévez Menéndez"
      }
    },
	{
      "type": "Feature",
      "geometry": {
        "type": "Point",
        "coordinates": [-5.65009045,43.32845297]
      },
      "properties": {
        "name": "Victoria Menéndez Menéndez"
      }
    },
	{
      "type": "Feature",
      "geometry": {
        "type": "Point",
        "coordinates": [-5.64500213,43.32808194]
      },
      "properties": {
        "name": "Victoria Menéndez Menéndez(Def.)"
      }
    },
	{
      "type": "Feature",
      "geometry": {
        "type": "Point",
        "coordinates": [-5.7245600,41.5213300]
      },
      "properties": {
        "name": "Tomás Estévez Sánchez"
      }
    },
	{
      "type": "Feature",
      "geometry": {
        "type": "Point",
        "coordinates": [-5.6415600,43.3403500]
      },
      "properties": {
        "name": "Tomás Estévez Sánchez(Def.)"
      }
    },
	{
      "type": "Feature",
      "geometry": {
        "type": "Point",
        "coordinates": [-5.6497600,43.3391200]
      },
      "properties": {
        "name": "Hermógenes Bajo de Abajo"
      }
    },
	{
      "type": "Feature",
      "geometry": {
        "type": "Point",
        "coordinates": [-5.6458600,43.3205200]
      },
      "properties": {
        "name": "Hermógenes Bajo de Abajo(Def.)"
      }
    },
	{
      "type": "Feature",
      "geometry": {
        "type": "Point",
        "coordinates": [-5.6692,43.2888]
      },
      "properties": {
        "name": "Celestino Bajo Martínez"
      }
    },
	{
      "type": "Feature",
      "geometry": {
        "type": "Point",
        "coordinates": [-5.6647600,43.3623200]
      },
      "properties": {
        "name": "Celestino Bajo Martínez(Def.)"
      }
    },
	{
      "type": "Feature",
      "geometry": {
        "type": "Point",
        "coordinates": [-5.6792,43.2988]
      },
      "properties": {
        "name": "Isabel de Abajo Menéndez"
      }
    },
	{
      "type": "Feature",
      "geometry": {
        "type": "Point",
        "coordinates": [-5.6169600,43.3246200]
      },
      "properties": {
        "name": "Isabel de Abajo Menéndez(Def.)"
      }
    }
  ]
}